[
    {
        "pk": 1, 
        "model": "flights_app.Airport", 
        "fields": {
            "IATA_code": "GKA", 
            "city": "Goroka", 
            "timezone": 10.0, 
            "name": "Goroka", 
            "ICAO_code": "AYGA", 
            "lat": -6.081689, 
            "country": "Papua New Guinea", 
            "alt": 5282, 
            "lon": 145.391881, 
            "DST": "U"
        }
    }, 
    {
        "pk": 2, 
        "model": "flights_app.Airport", 
        "fields": {
            "IATA_code": "MAG", 
            "city": "Madang", 
            "timezone": 10.0, 
            "name": "Madang", 
            "ICAO_code": "AYMD", 
            "lat": -5.207083, 
            "country": "Papua New Guinea", 
            "alt": 20, 
            "lon": 145.7887, 
            "DST": "U"
        }
    }, 
    {
        "pk": 3, 
        "model": "flights_app.Airport", 
        "fields": {
            "IATA_code": "HGU", 
            "city": "Mount Hagen", 
            "timezone": 10.0, 
            "name": "Mount Hagen", 
            "ICAO_code": "AYMH", 
            "lat": -5.826789, 
            "country": "Papua New Guinea", 
            "alt": 5388, 
            "lon": 144.295861, 
            "DST": "U"
        }
    }, 
    {
        "pk": 4, 
        "model": "flights_app.Airport", 
        "fields": {
            "IATA_code": "LAE", 
            "city": "Nadzab", 
            "timezone": 10.0, 
            "name": "Nadzab", 
            "ICAO_code": "AYNZ", 
            "lat": -6.569828, 
            "country": "Papua New Guinea", 
            "alt": 239, 
            "lon": 146.726242, 
            "DST": "U"
        }
    }, 
    {
        "pk": 5, 
        "model": "flights_app.Airport", 
        "fields": {
            "IATA_code": "POM", 
            "city": "Port Moresby", 
            "timezone": 10.0, 
            "name": "Port Moresby Jacksons Intl", 
            "ICAO_code": "AYPY", 
            "lat": -9.443383, 
            "country": "Papua New Guinea", 
            "alt": 146, 
            "lon": 147.22005, 
            "DST": "U"
        }
    }, 
    {
        "pk": 6, 
        "model": "flights_app.Airport", 
        "fields": {
            "IATA_code": "WWK", 
            "city": "Wewak", 
            "timezone": 10.0, 
            "name": "Wewak Intl", 
            "ICAO_code": "AYWK", 
            "lat": -3.583828, 
            "country": "Papua New Guinea", 
            "alt": 19, 
            "lon": 143.669186, 
            "DST": "U"
        }
    }, 
    {
        "pk": 7, 
        "model": "flights_app.Airport", 
        "fields": {
            "IATA_code": "UAK", 
            "city": "Narssarssuaq", 
            "timezone": -3.0, 
            "name": "Narsarsuaq", 
            "ICAO_code": "BGBW", 
            "lat": 61.160517, 
            "country": "Greenland", 
            "alt": 112, 
            "lon": -45.425978, 
            "DST": "E"
        }
    }, 
    {
        "pk": 8, 
        "model": "flights_app.Airport", 
        "fields": {
            "IATA_code": "GOH", 
            "city": "Godthaab", 
            "timezone": -3.0, 
            "name": "Nuuk", 
            "ICAO_code": "BGGH", 
            "lat": 64.190922, 
            "country": "Greenland", 
            "alt": 283, 
            "lon": -51.678064, 
            "DST": "E"
        }
    }, 
    {
        "pk": 9, 
        "model": "flights_app.Airport", 
        "fields": {
            "IATA_code": "SFJ", 
            "city": "Sondrestrom", 
            "timezone": -3.0, 
            "name": "Sondre Stromfjord", 
            "ICAO_code": "BGSF", 
            "lat": 67.016969, 
            "country": "Greenland", 
            "alt": 165, 
            "lon": -50.689325, 
            "DST": "E"
        }
    }, 
    {
        "pk": 10, 
        "model": "flights_app.Airport", 
        "fields": {
            "IATA_code": "THU", 
            "city": "Thule", 
            "timezone": -4.0, 
            "name": "Thule Air Base", 
            "ICAO_code": "BGTL", 
            "lat": 76.531203, 
            "country": "Greenland", 
            "alt": 251, 
            "lon": -68.703161, 
            "DST": "E"
        }
    }, 
    {
        "pk": 11, 
        "model": "flights_app.Airport", 
        "fields": {
            "IATA_code": "AEY", 
            "city": "Akureyri", 
            "timezone": 0.0, 
            "name": "Akureyri", 
            "ICAO_code": "BIAR", 
            "lat": 65.659994, 
            "country": "Iceland", 
            "alt": 6, 
            "lon": -18.072703, 
            "DST": "N"
        }
    }, 
    {
        "pk": 12, 
        "model": "flights_app.Airport", 
        "fields": {
            "IATA_code": "EGS", 
            "city": "Egilsstadir", 
            "timezone": 0.0, 
            "name": "Egilsstadir", 
            "ICAO_code": "BIEG", 
            "lat": 65.283333, 
            "country": "Iceland", 
            "alt": 76, 
            "lon": -14.401389, 
            "DST": "N"
        }
    }, 
    {
        "pk": 13, 
        "model": "flights_app.Airport", 
        "fields": {
            "IATA_code": "HFN", 
            "city": "Hofn", 
            "timezone": 0.0, 
            "name": "Hornafjordur", 
            "ICAO_code": "BIHN", 
            "lat": 64.295556, 
            "country": "Iceland", 
            "alt": 24, 
            "lon": -15.227222, 
            "DST": "N"
        }
    }, 
    {
        "pk": 14, 
        "model": "flights_app.Airport", 
        "fields": {
            "IATA_code": "HZK", 
            "city": "Husavik", 
            "timezone": 0.0, 
            "name": "Husavik", 
            "ICAO_code": "BIHU", 
            "lat": 65.952328, 
            "country": "Iceland", 
            "alt": 48, 
            "lon": -17.425978, 
            "DST": "N"
        }
    }, 
    {
        "pk": 15, 
        "model": "flights_app.Airport", 
        "fields": {
            "IATA_code": "IFJ", 
            "city": "Isafjordur", 
            "timezone": 0.0, 
            "name": "Isafjordur", 
            "ICAO_code": "BIIS", 
            "lat": 66.058056, 
            "country": "Iceland", 
            "alt": 8, 
            "lon": -23.135278, 
            "DST": "N"
        }
    }, 
    {
        "pk": 16, 
        "model": "flights_app.Airport", 
        "fields": {
            "IATA_code": "KEF", 
            "city": "Keflavik", 
            "timezone": 0.0, 
            "name": "Keflavik International Airport", 
            "ICAO_code": "BIKF", 
            "lat": 63.985, 
            "country": "Iceland", 
            "alt": 171, 
            "lon": -22.605556, 
            "DST": "N"
        }
    }, 
    {
        "pk": 17, 
        "model": "flights_app.Airport", 
        "fields": {
            "IATA_code": "PFJ", 
            "city": "Patreksfjordur", 
            "timezone": 0.0, 
            "name": "Patreksfjordur", 
            "ICAO_code": "BIPA", 
            "lat": 65.555833, 
            "country": "Iceland", 
            "alt": 11, 
            "lon": -23.965, 
            "DST": "N"
        }
    }, 
    {
        "pk": 18, 
        "model": "flights_app.Airport", 
        "fields": {
            "IATA_code": "RKV", 
            "city": "Reykjavik", 
            "timezone": 0.0, 
            "name": "Reykjavik", 
            "ICAO_code": "BIRK", 
            "lat": 64.13, 
            "country": "Iceland", 
            "alt": 48, 
            "lon": -21.940556, 
            "DST": "N"
        }
    }, 
    {
        "pk": 19, 
        "model": "flights_app.Airport", 
        "fields": {
            "IATA_code": "SIJ", 
            "city": "Siglufjordur", 
            "timezone": 0.0, 
            "name": "Siglufjordur", 
            "ICAO_code": "BISI", 
            "lat": 66.133333, 
            "country": "Iceland", 
            "alt": 10, 
            "lon": -18.916667, 
            "DST": "N"
        }
    }, 
    {
        "pk": 20, 
        "model": "flights_app.Airport", 
        "fields": {
            "IATA_code": "VEY", 
            "city": "Vestmannaeyjar", 
            "timezone": 0.0, 
            "name": "Vestmannaeyjar", 
            "ICAO_code": "BIVM", 
            "lat": 63.424303, 
            "country": "Iceland", 
            "alt": 326, 
            "lon": -20.278875, 
            "DST": "N"
        }
    }, 
    {
        "pk": 21, 
        "model": "flights_app.Airport", 
        "fields": {
            "IATA_code": "YAM", 
            "city": "Sault Sainte Marie", 
            "timezone": -5.0, 
            "name": "Sault Ste Marie", 
            "ICAO_code": "CYAM", 
            "lat": 46.485001, 
            "country": "Canada", 
            "alt": 630, 
            "lon": -84.509445, 
            "DST": "A"
        }
    }, 
    {
        "pk": 22, 
        "model": "flights_app.Airport", 
        "fields": {
            "IATA_code": "YAV", 
            "city": "Winnipeg", 
            "timezone": -6.0, 
            "name": "Winnipeg St Andrews", 
            "ICAO_code": "CYAV", 
            "lat": 50.056389, 
            "country": "Canada", 
            "alt": 760, 
            "lon": -97.0325, 
            "DST": "A"
        }
    }, 
    {
        "pk": 23, 
        "model": "flights_app.Airport", 
        "fields": {
            "IATA_code": "YAW", 
            "city": "Halifax", 
            "timezone": -4.0, 
            "name": "Shearwater", 
            "ICAO_code": "CYAW", 
            "lat": 44.639721, 
            "country": "Canada", 
            "alt": 167, 
            "lon": -63.499444, 
            "DST": "A"
        }
    }, 
    {
        "pk": 24, 
        "model": "flights_app.Airport", 
        "fields": {
            "IATA_code": "YAY", 
            "city": "St. Anthony", 
            "timezone": -4.0, 
            "name": "St Anthony", 
            "ICAO_code": "CYAY", 
            "lat": 51.391944, 
            "country": "Canada", 
            "alt": 108, 
            "lon": -56.083056, 
            "DST": "A"
        }
    }, 
    {
        "pk": 25, 
        "model": "flights_app.Airport", 
        "fields": {
            "IATA_code": "YAZ", 
            "city": "Tofino", 
            "timezone": -8.0, 
            "name": "Tofino", 
            "ICAO_code": "CYAZ", 
            "lat": 49.082222, 
            "country": "Canada", 
            "alt": 80, 
            "lon": -125.7725, 
            "DST": "A"
        }
    }, 
    {
        "pk": 26, 
        "model": "flights_app.Airport", 
        "fields": {
            "IATA_code": "YBB", 
            "city": "Pelly Bay", 
            "timezone": -6.0, 
            "name": "Kugaaruk", 
            "ICAO_code": "CYBB", 
            "lat": 68.534444, 
            "country": "Canada", 
            "alt": 56, 
            "lon": -89.808056, 
            "DST": "A"
        }
    }, 
    {
        "pk": 27, 
        "model": "flights_app.Airport", 
        "fields": {
            "IATA_code": "YBC", 
            "city": "Baie Comeau", 
            "timezone": -5.0, 
            "name": "Baie Comeau", 
            "ICAO_code": "CYBC", 
            "lat": 49.1325, 
            "country": "Canada", 
            "alt": 71, 
            "lon": -68.204444, 
            "DST": "A"
        }
    }, 
    {
        "pk": 28, 
        "model": "flights_app.Airport", 
        "fields": {
            "IATA_code": "YBG", 
            "city": "Bagotville", 
            "timezone": -5.0, 
            "name": "Bagotville", 
            "ICAO_code": "CYBG", 
            "lat": 48.330555, 
            "country": "Canada", 
            "alt": 522, 
            "lon": -70.996391, 
            "DST": "A"
        }
    }, 
    {
        "pk": 29, 
        "model": "flights_app.Airport", 
        "fields": {
            "IATA_code": "YBK", 
            "city": "Baker Lake", 
            "timezone": -6.0, 
            "name": "Baker Lake", 
            "ICAO_code": "CYBK", 
            "lat": 64.298889, 
            "country": "Canada", 
            "alt": 59, 
            "lon": -96.077778, 
            "DST": "A"
        }
    }, 
    {
        "pk": 30, 
        "model": "flights_app.Airport", 
        "fields": {
            "IATA_code": "YBL", 
            "city": "Campbell River", 
            "timezone": -8.0, 
            "name": "Campbell River", 
            "ICAO_code": "CYBL", 
            "lat": 49.950832, 
            "country": "Canada", 
            "alt": 346, 
            "lon": -125.270833, 
            "DST": "A"
        }
    }, 
    {
        "pk": 31, 
        "model": "flights_app.Airport", 
        "fields": {
            "IATA_code": "YBR", 
            "city": "Brandon", 
            "timezone": -6.0, 
            "name": "Brandon Muni", 
            "ICAO_code": "CYBR", 
            "lat": 49.91, 
            "country": "Canada", 
            "alt": 1343, 
            "lon": -99.951944, 
            "DST": "A"
        }
    }, 
    {
        "pk": 32, 
        "model": "flights_app.Airport", 
        "fields": {
            "IATA_code": "YCB", 
            "city": "Cambridge Bay", 
            "timezone": -7.0, 
            "name": "Cambridge Bay", 
            "ICAO_code": "CYCB", 
            "lat": 69.108055, 
            "country": "Canada", 
            "alt": 90, 
            "lon": -105.138333, 
            "DST": "A"
        }
    }, 
    {
        "pk": 33, 
        "model": "flights_app.Airport", 
        "fields": {
            "IATA_code": "YCD", 
            "city": "Nanaimo", 
            "timezone": -8.0, 
            "name": "Nanaimo", 
            "ICAO_code": "CYCD", 
            "lat": 49.052333, 
            "country": "Canada", 
            "alt": 93, 
            "lon": -123.870167, 
            "DST": "A"
        }
    }, 
    {
        "pk": 34, 
        "model": "flights_app.Airport", 
        "fields": {
            "IATA_code": "YCG", 
            "city": "Castlegar", 
            "timezone": -8.0, 
            "name": "Castlegar", 
            "ICAO_code": "CYCG", 
            "lat": 49.296389, 
            "country": "Canada", 
            "alt": 1624, 
            "lon": -117.6325, 
            "DST": "A"
        }
    }, 
    {
        "pk": 35, 
        "model": "flights_app.Airport", 
        "fields": {
            "IATA_code": "YCH", 
            "city": "Chatham", 
            "timezone": -4.0, 
            "name": "Miramichi", 
            "ICAO_code": "CYCH", 
            "lat": 47.007778, 
            "country": "Canada", 
            "alt": 108, 
            "lon": -65.449167, 
            "DST": "A"
        }
    }, 
    {
        "pk": 36, 
        "model": "flights_app.Airport", 
        "fields": {
            "IATA_code": "YCL", 
            "city": "Charlo", 
            "timezone": -4.0, 
            "name": "Charlo", 
            "ICAO_code": "CYCL", 
            "lat": 47.990833, 
            "country": "Canada", 
            "alt": 132, 
            "lon": -66.330278, 
            "DST": "A"
        }
    }, 
    {
        "pk": 37, 
        "model": "flights_app.Airport", 
        "fields": {
            "IATA_code": "YCO", 
            "city": "Coppermine", 
            "timezone": -7.0, 
            "name": "Kugluktuk", 
            "ICAO_code": "CYCO", 
            "lat": 67.816667, 
            "country": "Canada", 
            "alt": 74, 
            "lon": -115.143889, 
            "DST": "A"
        }
    }, 
    {
        "pk": 38, 
        "model": "flights_app.Airport", 
        "fields": {
            "IATA_code": "YCT", 
            "city": "Coronation", 
            "timezone": -7.0, 
            "name": "Coronation", 
            "ICAO_code": "CYCT", 
            "lat": 52.075001, 
            "country": "Canada", 
            "alt": 2595, 
            "lon": -111.445278, 
            "DST": "A"
        }
    }, 
    {
        "pk": 39, 
        "model": "flights_app.Airport", 
        "fields": {
            "IATA_code": "YCW", 
            "city": "Chilliwack", 
            "timezone": -8.0, 
            "name": "Chilliwack", 
            "ICAO_code": "CYCW", 
            "lat": 49.152779, 
            "country": "Canada", 
            "alt": 32, 
            "lon": -121.93889, 
            "DST": "A"
        }
    }, 
    {
        "pk": 40, 
        "model": "flights_app.Airport", 
        "fields": {
            "IATA_code": "YCY", 
            "city": "Clyde River", 
            "timezone": -5.0, 
            "name": "Clyde River", 
            "ICAO_code": "CYCY", 
            "lat": 70.486111, 
            "country": "Canada", 
            "alt": 87, 
            "lon": -68.516667, 
            "DST": "A"
        }
    }, 
    {
        "pk": 41, 
        "model": "flights_app.Airport", 
        "fields": {
            "IATA_code": "YZS", 
            "city": "Coral Harbour", 
            "timezone": -7.0, 
            "name": "Fairmont Hot Springs", 
            "ICAO_code": "CYCZ", 
            "lat": 64.193333, 
            "country": "Canada", 
            "alt": 2661, 
            "lon": -83.359444, 
            "DST": "A"
        }
    }, 
    {
        "pk": 42, 
        "model": "flights_app.Airport", 
        "fields": {
            "IATA_code": "YDA", 
            "city": "Dawson", 
            "timezone": -8.0, 
            "name": "Dawson City", 
            "ICAO_code": "CYDA", 
            "lat": 64.043056, 
            "country": "Canada", 
            "alt": 1215, 
            "lon": -139.127778, 
            "DST": "A"
        }
    }, 
    {
        "pk": 43, 
        "model": "flights_app.Airport", 
        "fields": {
            "IATA_code": "YDB", 
            "city": "Burwash", 
            "timezone": -8.0, 
            "name": "Burwash", 
            "ICAO_code": "CYDB", 
            "lat": 61.371111, 
            "country": "Canada", 
            "alt": 2647, 
            "lon": -139.040556, 
            "DST": "A"
        }
    }, 
    {
        "pk": 44, 
        "model": "flights_app.Airport", 
        "fields": {
            "IATA_code": "YDC", 
            "city": "Princeton", 
            "timezone": -8.0, 
            "name": "Princeton", 
            "ICAO_code": "CYDC", 
            "lat": 49.468056, 
            "country": "Canada", 
            "alt": 2298, 
            "lon": -120.511389, 
            "DST": "A"
        }
    }, 
    {
        "pk": 45, 
        "model": "flights_app.Airport", 
        "fields": {
            "IATA_code": "YDF", 
            "city": "Deer Lake", 
            "timezone": -4.0, 
            "name": "Deer Lake", 
            "ICAO_code": "CYDF", 
            "lat": 49.210833, 
            "country": "Canada", 
            "alt": 72, 
            "lon": -57.391388, 
            "DST": "A"
        }
    }, 
    {
        "pk": 46, 
        "model": "flights_app.Airport", 
        "fields": {
            "IATA_code": "YDL", 
            "city": "Dease Lake", 
            "timezone": -8.0, 
            "name": "Dease Lake", 
            "ICAO_code": "CYDL", 
            "lat": 58.422222, 
            "country": "Canada", 
            "alt": 2600, 
            "lon": -130.032222, 
            "DST": "A"
        }
    }, 
    {
        "pk": 47, 
        "model": "flights_app.Airport", 
        "fields": {
            "IATA_code": "YDN", 
            "city": "Dauphin", 
            "timezone": -6.0, 
            "name": "Dauphin Barker", 
            "ICAO_code": "CYDN", 
            "lat": 51.100834, 
            "country": "Canada", 
            "alt": 999, 
            "lon": -100.0525, 
            "DST": "A"
        }
    }, 
    {
        "pk": 48, 
        "model": "flights_app.Airport", 
        "fields": {
            "IATA_code": "YDQ", 
            "city": "Dawson Creek", 
            "timezone": -7.0, 
            "name": "Dawson Creek", 
            "ICAO_code": "CYDQ", 
            "lat": 55.742333, 
            "country": "Canada", 
            "alt": 2148, 
            "lon": -120.183, 
            "DST": "A"
        }
    }, 
    {
        "pk": 49, 
        "model": "flights_app.Airport", 
        "fields": {
            "IATA_code": "YEG", 
            "city": "Edmonton", 
            "timezone": -7.0, 
            "name": "Edmonton Intl", 
            "ICAO_code": "CYEG", 
            "lat": 53.309723, 
            "country": "Canada", 
            "alt": 2373, 
            "lon": -113.579722, 
            "DST": "A"
        }
    }, 
    {
        "pk": 50, 
        "model": "flights_app.Airport", 
        "fields": {
            "IATA_code": "YEK", 
            "city": "Eskimo Point", 
            "timezone": -6.0, 
            "name": "Arviat", 
            "ICAO_code": "CYEK", 
            "lat": 61.094166, 
            "country": "Canada", 
            "alt": 32, 
            "lon": -94.070833, 
            "DST": "A"
        }
    }, 
    {
        "pk": 51, 
        "model": "flights_app.Airport", 
        "fields": {
            "IATA_code": "YEN", 
            "city": "Estevan", 
            "timezone": -6.0, 
            "name": "Estevan", 
            "ICAO_code": "CYEN", 
            "lat": 49.210278, 
            "country": "Canada", 
            "alt": 1905, 
            "lon": -102.965833, 
            "DST": "N"
        }
    }, 
    {
        "pk": 52, 
        "model": "flights_app.Airport", 
        "fields": {
            "IATA_code": "YET", 
            "city": "Edson", 
            "timezone": -7.0, 
            "name": "Edson", 
            "ICAO_code": "CYET", 
            "lat": 53.578888, 
            "country": "Canada", 
            "alt": 3041, 
            "lon": -116.465, 
            "DST": "A"
        }
    }, 
    {
        "pk": 53, 
        "model": "flights_app.Airport", 
        "fields": {
            "IATA_code": "YEU", 
            "city": "Eureka", 
            "timezone": -6.0, 
            "name": "Eureka", 
            "ICAO_code": "CYEU", 
            "lat": 79.994722, 
            "country": "Canada", 
            "alt": 256, 
            "lon": -85.814167, 
            "DST": "A"
        }
    }, 
    {
        "pk": 54, 
        "model": "flights_app.Airport", 
        "fields": {
            "IATA_code": "YEV", 
            "city": "Inuvik", 
            "timezone": -7.0, 
            "name": "Inuvik Mike Zubko", 
            "ICAO_code": "CYEV", 
            "lat": 68.304167, 
            "country": "Canada", 
            "alt": 224, 
            "lon": -133.482778, 
            "DST": "A"
        }
    }, 
    {
        "pk": 55, 
        "model": "flights_app.Airport", 
        "fields": {
            "IATA_code": "YFB", 
            "city": "Iqaluit", 
            "timezone": -5.0, 
            "name": "Iqaluit", 
            "ICAO_code": "CYFB", 
            "lat": 63.75639, 
            "country": "Canada", 
            "alt": 110, 
            "lon": -68.555832, 
            "DST": "A"
        }
    }, 
    {
        "pk": 56, 
        "model": "flights_app.Airport", 
        "fields": {
            "IATA_code": "YFC", 
            "city": "Fredericton", 
            "timezone": -4.0, 
            "name": "Fredericton", 
            "ICAO_code": "CYFC", 
            "lat": 45.868889, 
            "country": "Canada", 
            "alt": 68, 
            "lon": -66.537222, 
            "DST": "A"
        }
    }, 
    {
        "pk": 57, 
        "model": "flights_app.Airport", 
        "fields": {
            "IATA_code": "", 
            "city": "Forestville", 
            "timezone": -5.0, 
            "name": "Forestville", 
            "ICAO_code": "CYFE", 
            "lat": 48.746111, 
            "country": "Canada", 
            "alt": 293, 
            "lon": -69.097222, 
            "DST": "A"
        }
    }, 
    {
        "pk": 58, 
        "model": "flights_app.Airport", 
        "fields": {
            "IATA_code": "YFO", 
            "city": "Flin Flon", 
            "timezone": -6.0, 
            "name": "Flin Flon", 
            "ICAO_code": "CYFO", 
            "lat": 54.678055, 
            "country": "Canada", 
            "alt": 997, 
            "lon": -101.681667, 
            "DST": "A"
        }
    }, 
    {
        "pk": 59, 
        "model": "flights_app.Airport", 
        "fields": {
            "IATA_code": "YFR", 
            "city": "Fort Resolution", 
            "timezone": -7.0, 
            "name": "Fort Resolution", 
            "ICAO_code": "CYFR", 
            "lat": 61.180832, 
            "country": "Canada", 
            "alt": 526, 
            "lon": -113.689722, 
            "DST": "A"
        }
    }, 
    {
        "pk": 60, 
        "model": "flights_app.Airport", 
        "fields": {
            "IATA_code": "YFS", 
            "city": "Fort Simpson", 
            "timezone": -7.0, 
            "name": "Fort Simpson", 
            "ICAO_code": "CYFS", 
            "lat": 61.760153, 
            "country": "Canada", 
            "alt": 555, 
            "lon": -121.236525, 
            "DST": "A"
        }
    }, 
    {
        "pk": 61, 
        "model": "flights_app.Airport", 
        "fields": {
            "IATA_code": "YGK", 
            "city": "Kingston", 
            "timezone": -5.0, 
            "name": "Kingston", 
            "ICAO_code": "CYGK", 
            "lat": 44.225277, 
            "country": "Canada", 
            "alt": 305, 
            "lon": -76.596944, 
            "DST": "A"
        }
    }, 
    {
        "pk": 62, 
        "model": "flights_app.Airport", 
        "fields": {
            "IATA_code": "YGL", 
            "city": "La Grande Riviere", 
            "timezone": -5.0, 
            "name": "La Grande Riviere", 
            "ICAO_code": "CYGL", 
            "lat": 53.625278, 
            "country": "Canada", 
            "alt": 639, 
            "lon": -77.704167, 
            "DST": "A"
        }
    }, 
    {
        "pk": 63, 
        "model": "flights_app.Airport", 
        "fields": {
            "IATA_code": "YGP", 
            "city": "Gaspe", 
            "timezone": -5.0, 
            "name": "Gaspe", 
            "ICAO_code": "CYGP", 
            "lat": 48.775278, 
            "country": "Canada", 
            "alt": 108, 
            "lon": -64.478611, 
            "DST": "A"
        }
    }, 
    {
        "pk": 64, 
        "model": "flights_app.Airport", 
        "fields": {
            "IATA_code": "YGQ", 
            "city": "Geraldton", 
            "timezone": -5.0, 
            "name": "Geraldton Greenstone Regional", 
            "ICAO_code": "CYGQ", 
            "lat": 49.778332, 
            "country": "Canada", 
            "alt": 1144, 
            "lon": -86.939445, 
            "DST": "A"
        }
    }, 
    {
        "pk": 65, 
        "model": "flights_app.Airport", 
        "fields": {
            "IATA_code": "YGR", 
            "city": "Iles De La Madeleine", 
            "timezone": -4.0, 
            "name": "Iles De La Madeleine", 
            "ICAO_code": "CYGR", 
            "lat": 47.424721, 
            "country": "Canada", 
            "alt": 35, 
            "lon": -61.778056, 
            "DST": "A"
        }
    }, 
    {
        "pk": 66, 
        "model": "flights_app.Airport", 
        "fields": {
            "IATA_code": "YHB", 
            "city": "Hudson Bay", 
            "timezone": -6.0, 
            "name": "Hudson Bay", 
            "ICAO_code": "CYHB", 
            "lat": 52.816666, 
            "country": "Canada", 
            "alt": 1175, 
            "lon": -102.31139, 
            "DST": "N"
        }
    }, 
    {
        "pk": 67, 
        "model": "flights_app.Airport", 
        "fields": {
            "IATA_code": "YHD", 
            "city": "Dryden", 
            "timezone": -6.0, 
            "name": "Dryden Rgnl", 
            "ICAO_code": "CYHD", 
            "lat": 49.831667, 
            "country": "Canada", 
            "alt": 1354, 
            "lon": -92.744167, 
            "DST": "A"
        }
    }, 
    {
        "pk": 68, 
        "model": "flights_app.Airport", 
        "fields": {
            "IATA_code": "YHI", 
            "city": "Holman Island", 
            "timezone": -7.0, 
            "name": "Ulukhaktok Holman", 
            "ICAO_code": "CYHI", 
            "lat": 70.762778, 
            "country": "Canada", 
            "alt": 117, 
            "lon": -117.806111, 
            "DST": "A"
        }
    }, 
    {
        "pk": 69, 
        "model": "flights_app.Airport", 
        "fields": {
            "IATA_code": "YHK", 
            "city": "Gjoa Haven", 
            "timezone": -6.0, 
            "name": "Gjoa Haven", 
            "ICAO_code": "CYHK", 
            "lat": 68.635556, 
            "country": "Canada", 
            "alt": 152, 
            "lon": -95.849722, 
            "DST": "A"
        }
    }, 
    {
        "pk": 70, 
        "model": "flights_app.Airport", 
        "fields": {
            "IATA_code": "YHM", 
            "city": "Hamilton", 
            "timezone": -5.0, 
            "name": "Hamilton", 
            "ICAO_code": "CYHM", 
            "lat": 43.173611, 
            "country": "Canada", 
            "alt": 780, 
            "lon": -79.935, 
            "DST": "A"
        }
    }, 
    {
        "pk": 71, 
        "model": "flights_app.Airport", 
        "fields": {
            "IATA_code": "YHU", 
            "city": "Montreal", 
            "timezone": -5.0, 
            "name": "St Hubert", 
            "ICAO_code": "CYHU", 
            "lat": 45.5175, 
            "country": "Canada", 
            "alt": 90, 
            "lon": -73.416944, 
            "DST": "A"
        }
    }, 
    {
        "pk": 72, 
        "model": "flights_app.Airport", 
        "fields": {
            "IATA_code": "YHY", 
            "city": "Hay River", 
            "timezone": -7.0, 
            "name": "Hay River", 
            "ICAO_code": "CYHY", 
            "lat": 60.839722, 
            "country": "Canada", 
            "alt": 543, 
            "lon": -115.782778, 
            "DST": "A"
        }
    }, 
    {
        "pk": 73, 
        "model": "flights_app.Airport", 
        "fields": {
            "IATA_code": "YHZ", 
            "city": "Halifax", 
            "timezone": -4.0, 
            "name": "Halifax Intl", 
            "ICAO_code": "CYHZ", 
            "lat": 44.880833, 
            "country": "Canada", 
            "alt": 477, 
            "lon": -63.50861, 
            "DST": "A"
        }
    }, 
    {
        "pk": 74, 
        "model": "flights_app.Airport", 
        "fields": {
            "IATA_code": "YIB", 
            "city": "Atikokan", 
            "timezone": -6.0, 
            "name": "Atikokan Muni", 
            "ICAO_code": "CYIB", 
            "lat": 48.773888, 
            "country": "Canada", 
            "alt": 1408, 
            "lon": -91.638611, 
            "DST": "A"
        }
    }, 
    {
        "pk": 75, 
        "model": "flights_app.Airport", 
        "fields": {
            "IATA_code": "YIO", 
            "city": "Pond Inlet", 
            "timezone": -5.0, 
            "name": "Pond Inlet", 
            "ICAO_code": "CYIO", 
            "lat": 72.683334, 
            "country": "Canada", 
            "alt": 181, 
            "lon": -77.966667, 
            "DST": "A"
        }
    }, 
    {
        "pk": 76, 
        "model": "flights_app.Airport", 
        "fields": {
            "IATA_code": "YJN", 
            "city": "St. Jean", 
            "timezone": -5.0, 
            "name": "St Jean", 
            "ICAO_code": "CYJN", 
            "lat": 45.294445, 
            "country": "Canada", 
            "alt": 136, 
            "lon": -73.281111, 
            "DST": "A"
        }
    }, 
    {
        "pk": 77, 
        "model": "flights_app.Airport", 
        "fields": {
            "IATA_code": "YJT", 
            "city": "Stephenville", 
            "timezone": -4.0, 
            "name": "Stephenville", 
            "ICAO_code": "CYJT", 
            "lat": 48.544167, 
            "country": "Canada", 
            "alt": 80, 
            "lon": -58.549999, 
            "DST": "A"
        }
    }, 
    {
        "pk": 78, 
        "model": "flights_app.Airport", 
        "fields": {
            "IATA_code": "YKA", 
            "city": "Kamloops", 
            "timezone": -8.0, 
            "name": "Kamloops", 
            "ICAO_code": "CYKA", 
            "lat": 50.702222, 
            "country": "Canada", 
            "alt": 1133, 
            "lon": -120.444444, 
            "DST": "A"
        }
    }, 
    {
        "pk": 79, 
        "model": "flights_app.Airport", 
        "fields": {
            "IATA_code": "YKF", 
            "city": "Waterloo", 
            "timezone": -5.0, 
            "name": "Waterloo", 
            "ICAO_code": "CYKF", 
            "lat": 43.460833, 
            "country": "Canada", 
            "alt": 1054, 
            "lon": -80.378611, 
            "DST": "A"
        }
    }, 
    {
        "pk": 80, 
        "model": "flights_app.Airport", 
        "fields": {
            "IATA_code": "YKL", 
            "city": "Schefferville", 
            "timezone": -4.0, 
            "name": "Schefferville", 
            "ICAO_code": "CYKL", 
            "lat": 54.805278, 
            "country": "Canada", 
            "alt": 1709, 
            "lon": -66.805278, 
            "DST": "A"
        }
    }, 
    {
        "pk": 81, 
        "model": "flights_app.Airport", 
        "fields": {
            "IATA_code": "YKY", 
            "city": "Kindersley", 
            "timezone": -6.0, 
            "name": "Kindersley", 
            "ICAO_code": "CYKY", 
            "lat": 51.5175, 
            "country": "Canada", 
            "alt": 2277, 
            "lon": -109.180833, 
            "DST": "N"
        }
    }, 
    {
        "pk": 82, 
        "model": "flights_app.Airport", 
        "fields": {
            "IATA_code": "YKZ", 
            "city": "Toronto", 
            "timezone": -5.0, 
            "name": "Buttonville Muni", 
            "ICAO_code": "CYKZ", 
            "lat": 43.862221, 
            "country": "Canada", 
            "alt": 650, 
            "lon": -79.37, 
            "DST": "A"
        }
    }, 
    {
        "pk": 83, 
        "model": "flights_app.Airport", 
        "fields": {
            "IATA_code": "YLD", 
            "city": "Chapleau", 
            "timezone": -5.0, 
            "name": "Chapleau", 
            "ICAO_code": "CYLD", 
            "lat": 47.82, 
            "country": "Canada", 
            "alt": 1470, 
            "lon": -83.346667, 
            "DST": "A"
        }
    }, 
    {
        "pk": 84, 
        "model": "flights_app.Airport", 
        "fields": {
            "IATA_code": "YLJ", 
            "city": "Meadow Lake", 
            "timezone": -6.0, 
            "name": "Meadow Lake", 
            "ICAO_code": "CYLJ", 
            "lat": 54.125278, 
            "country": "Canada", 
            "alt": 1576, 
            "lon": -108.522778, 
            "DST": "N"
        }
    }, 
    {
        "pk": 85, 
        "model": "flights_app.Airport", 
        "fields": {
            "IATA_code": "YLL", 
            "city": "Lloydminster", 
            "timezone": -6.0, 
            "name": "Lloydminster", 
            "ICAO_code": "CYLL", 
            "lat": 53.309166, 
            "country": "Canada", 
            "alt": 2193, 
            "lon": -110.0725, 
            "DST": "A"
        }
    }, 
    {
        "pk": 86, 
        "model": "flights_app.Airport", 
        "fields": {
            "IATA_code": "YLT", 
            "city": "Alert", 
            "timezone": -5.0, 
            "name": "Alert", 
            "ICAO_code": "CYLT", 
            "lat": 82.517778, 
            "country": "Canada", 
            "alt": 100, 
            "lon": -62.280556, 
            "DST": "A"
        }
    }, 
    {
        "pk": 87, 
        "model": "flights_app.Airport", 
        "fields": {
            "IATA_code": "YLW", 
            "city": "Kelowna", 
            "timezone": -8.0, 
            "name": "Kelowna", 
            "ICAO_code": "CYLW", 
            "lat": 49.956112, 
            "country": "Canada", 
            "alt": 1409, 
            "lon": -119.377778, 
            "DST": "A"
        }
    }, 
    {
        "pk": 88, 
        "model": "flights_app.Airport", 
        "fields": {
            "IATA_code": "YMA", 
            "city": "Mayo", 
            "timezone": -8.0, 
            "name": "Mayo", 
            "ICAO_code": "CYMA", 
            "lat": 63.616389, 
            "country": "Canada", 
            "alt": 1653, 
            "lon": -135.868333, 
            "DST": "A"
        }
    }, 
    {
        "pk": 89, 
        "model": "flights_app.Airport", 
        "fields": {
            "IATA_code": "YMJ", 
            "city": "Moose Jaw", 
            "timezone": -6.0, 
            "name": "Moose Jaw Air Vice Marshal C M Mcewen", 
            "ICAO_code": "CYMJ", 
            "lat": 50.330278, 
            "country": "Canada", 
            "alt": 1892, 
            "lon": -105.559167, 
            "DST": "N"
        }
    }, 
    {
        "pk": 90, 
        "model": "flights_app.Airport", 
        "fields": {
            "IATA_code": "YMM", 
            "city": "Fort Mcmurray", 
            "timezone": -7.0, 
            "name": "Fort Mcmurray", 
            "ICAO_code": "CYMM", 
            "lat": 56.653333, 
            "country": "Canada", 
            "alt": 1211, 
            "lon": -111.221944, 
            "DST": "A"
        }
    }, 
    {
        "pk": 91, 
        "model": "flights_app.Airport", 
        "fields": {
            "IATA_code": "YMO", 
            "city": "Moosonee", 
            "timezone": -5.0, 
            "name": "Moosonee", 
            "ICAO_code": "CYMO", 
            "lat": 51.291111, 
            "country": "Canada", 
            "alt": 30, 
            "lon": -80.607778, 
            "DST": "A"
        }
    }, 
    {
        "pk": 92, 
        "model": "flights_app.Airport", 
        "fields": {
            "IATA_code": "YMW", 
            "city": "Maniwaki", 
            "timezone": -5.0, 
            "name": "Maniwaki", 
            "ICAO_code": "CYMW", 
            "lat": 46.272778, 
            "country": "Canada", 
            "alt": 656, 
            "lon": -75.990556, 
            "DST": "A"
        }
    }, 
    {
        "pk": 93, 
        "model": "flights_app.Airport", 
        "fields": {
            "IATA_code": "YMX", 
            "city": "Montreal", 
            "timezone": -5.0, 
            "name": "Montreal Intl Mirabel", 
            "ICAO_code": "CYMX", 
            "lat": 45.681944, 
            "country": "Canada", 
            "alt": 270, 
            "lon": -74.005278, 
            "DST": "A"
        }
    }, 
    {
        "pk": 94, 
        "model": "flights_app.Airport", 
        "fields": {
            "IATA_code": "YNA", 
            "city": "Natashquan", 
            "timezone": -4.0, 
            "name": "Natashquan", 
            "ICAO_code": "CYNA", 
            "lat": 50.19, 
            "country": "Canada", 
            "alt": 39, 
            "lon": -61.789167, 
            "DST": "A"
        }
    }, 
    {
        "pk": 95, 
        "model": "flights_app.Airport", 
        "fields": {
            "IATA_code": "YND", 
            "city": "Gatineau", 
            "timezone": -5.0, 
            "name": "Gatineau", 
            "ICAO_code": "CYND", 
            "lat": 45.521694, 
            "country": "Canada", 
            "alt": 211, 
            "lon": -75.563589, 
            "DST": "A"
        }
    }, 
    {
        "pk": 96, 
        "model": "flights_app.Airport", 
        "fields": {
            "IATA_code": "YNM", 
            "city": "Matagami", 
            "timezone": -5.0, 
            "name": "Matagami", 
            "ICAO_code": "CYNM", 
            "lat": 49.761667, 
            "country": "Canada", 
            "alt": 918, 
            "lon": -77.802778, 
            "DST": "A"
        }
    }, 
    {
        "pk": 97, 
        "model": "flights_app.Airport", 
        "fields": {
            "IATA_code": "YOC", 
            "city": "Old Crow", 
            "timezone": -8.0, 
            "name": "Old Crow", 
            "ICAO_code": "CYOC", 
            "lat": 67.570556, 
            "country": "Canada", 
            "alt": 824, 
            "lon": -139.839167, 
            "DST": "A"
        }
    }, 
    {
        "pk": 98, 
        "model": "flights_app.Airport", 
        "fields": {
            "IATA_code": "YOD", 
            "city": "Cold Lake", 
            "timezone": -7.0, 
            "name": "Cold Lake", 
            "ICAO_code": "CYOD", 
            "lat": 54.404999, 
            "country": "Canada", 
            "alt": 1775, 
            "lon": -110.279444, 
            "DST": "A"
        }
    }, 
    {
        "pk": 99, 
        "model": "flights_app.Airport", 
        "fields": {
            "IATA_code": "YOJ", 
            "city": "High Level", 
            "timezone": -7.0, 
            "name": "High Level", 
            "ICAO_code": "CYOJ", 
            "lat": 58.621389, 
            "country": "Canada", 
            "alt": 1110, 
            "lon": -117.164722, 
            "DST": "A"
        }
    }, 
    {
        "pk": 100, 
        "model": "flights_app.Airport", 
        "fields": {
            "IATA_code": "YOW", 
            "city": "Ottawa", 
            "timezone": -5.0, 
            "name": "Ottawa Macdonald Cartier Intl", 
            "ICAO_code": "CYOW", 
            "lat": 45.3225, 
            "country": "Canada", 
            "alt": 374, 
            "lon": -75.669167, 
            "DST": "A"
        }
    }, 
    {
        "pk": 101, 
        "model": "flights_app.Airport", 
        "fields": {
            "IATA_code": "YPA", 
            "city": "Prince Albert", 
            "timezone": -6.0, 
            "name": "Prince Albert Glass Field", 
            "ICAO_code": "CYPA", 
            "lat": 53.214167, 
            "country": "Canada", 
            "alt": 1405, 
            "lon": -105.672778, 
            "DST": "N"
        }
    }, 
    {
        "pk": 102, 
        "model": "flights_app.Airport", 
        "fields": {
            "IATA_code": "YPE", 
            "city": "Peace River", 
            "timezone": -7.0, 
            "name": "Peace River", 
            "ICAO_code": "CYPE", 
            "lat": 56.226944, 
            "country": "Canada", 
            "alt": 1873, 
            "lon": -117.447222, 
            "DST": "A"
        }
    }, 
    {
        "pk": 103, 
        "model": "flights_app.Airport", 
        "fields": {
            "IATA_code": "YPG", 
            "city": "Portage-la-prairie", 
            "timezone": -6.0, 
            "name": "Southport", 
            "ICAO_code": "CYPG", 
            "lat": 49.903056, 
            "country": "Canada", 
            "alt": 885, 
            "lon": -98.273889, 
            "DST": "A"
        }
    }, 
    {
        "pk": 104, 
        "model": "flights_app.Airport", 
        "fields": {
            "IATA_code": "", 
            "city": "Pitt Meadows", 
            "timezone": -8.0, 
            "name": "Pitt Meadows", 
            "ICAO_code": "CYPK", 
            "lat": 49.21611, 
            "country": "Canada", 
            "alt": 11, 
            "lon": -122.71, 
            "DST": "A"
        }
    }, 
    {
        "pk": 105, 
        "model": "flights_app.Airport", 
        "fields": {
            "IATA_code": "YPL", 
            "city": "Pickle Lake", 
            "timezone": -6.0, 
            "name": "Pickle Lake", 
            "ICAO_code": "CYPL", 
            "lat": 51.446388, 
            "country": "Canada", 
            "alt": 1267, 
            "lon": -90.214167, 
            "DST": "A"
        }
    }, 
    {
        "pk": 106, 
        "model": "flights_app.Airport", 
        "fields": {
            "IATA_code": "YPN", 
            "city": "Port Menier", 
            "timezone": -5.0, 
            "name": "Port Menier", 
            "ICAO_code": "CYPN", 
            "lat": 49.836389, 
            "country": "Canada", 
            "alt": 167, 
            "lon": -64.288611, 
            "DST": "A"
        }
    }, 
    {
        "pk": 107, 
        "model": "flights_app.Airport", 
        "fields": {
            "IATA_code": "YPQ", 
            "city": "Peterborough", 
            "timezone": -5.0, 
            "name": "Peterborough", 
            "ICAO_code": "CYPQ", 
            "lat": 44.23, 
            "country": "Canada", 
            "alt": 628, 
            "lon": -78.363333, 
            "DST": "A"
        }
    }, 
    {
        "pk": 108, 
        "model": "flights_app.Airport", 
        "fields": {
            "IATA_code": "YPR", 
            "city": "Prince Pupert", 
            "timezone": -8.0, 
            "name": "Prince Rupert", 
            "ICAO_code": "CYPR", 
            "lat": 54.28611, 
            "country": "Canada", 
            "alt": 116, 
            "lon": -130.444722, 
            "DST": "A"
        }
    }, 
    {
        "pk": 109, 
        "model": "flights_app.Airport", 
        "fields": {
            "IATA_code": "YPY", 
            "city": "Fort Chipewyan", 
            "timezone": -7.0, 
            "name": "Fort Chipewyan", 
            "ICAO_code": "CYPY", 
            "lat": 58.767223, 
            "country": "Canada", 
            "alt": 761, 
            "lon": -111.117222, 
            "DST": "A"
        }
    }, 
    {
        "pk": 110, 
        "model": "flights_app.Airport", 
        "fields": {
            "IATA_code": "YQA", 
            "city": "Muskoka", 
            "timezone": -5.0, 
            "name": "Muskoka", 
            "ICAO_code": "CYQA", 
            "lat": 44.974722, 
            "country": "Canada", 
            "alt": 925, 
            "lon": -79.303333, 
            "DST": "A"
        }
    }, 
    {
        "pk": 111, 
        "model": "flights_app.Airport", 
        "fields": {
            "IATA_code": "YQB", 
            "city": "Quebec", 
            "timezone": -5.0, 
            "name": "Quebec Jean Lesage Intl", 
            "ICAO_code": "CYQB", 
            "lat": 46.791111, 
            "country": "Canada", 
            "alt": 244, 
            "lon": -71.393333, 
            "DST": "A"
        }
    }, 
    {
        "pk": 112, 
        "model": "flights_app.Airport", 
        "fields": {
            "IATA_code": "YQF", 
            "city": "Red Deer Industrial", 
            "timezone": -7.0, 
            "name": "Red Deer Regional", 
            "ICAO_code": "CYQF", 
            "lat": 52.182222, 
            "country": "Canada", 
            "alt": 2968, 
            "lon": -113.894444, 
            "DST": "A"
        }
    }, 
    {
        "pk": 113, 
        "model": "flights_app.Airport", 
        "fields": {
            "IATA_code": "YQG", 
            "city": "Windsor", 
            "timezone": -5.0, 
            "name": "Windsor", 
            "ICAO_code": "CYQG", 
            "lat": 42.275556, 
            "country": "Canada", 
            "alt": 622, 
            "lon": -82.955556, 
            "DST": "A"
        }
    }, 
    {
        "pk": 114, 
        "model": "flights_app.Airport", 
        "fields": {
            "IATA_code": "YQH", 
            "city": "Watson Lake", 
            "timezone": -8.0, 
            "name": "Watson Lake", 
            "ICAO_code": "CYQH", 
            "lat": 60.116389, 
            "country": "Canada", 
            "alt": 2255, 
            "lon": -128.8225, 
            "DST": "A"
        }
    }, 
    {
        "pk": 115, 
        "model": "flights_app.Airport", 
        "fields": {
            "IATA_code": "YQK", 
            "city": "Kenora", 
            "timezone": -6.0, 
            "name": "Kenora", 
            "ICAO_code": "CYQK", 
            "lat": 49.788334, 
            "country": "Canada", 
            "alt": 1332, 
            "lon": -94.363056, 
            "DST": "A"
        }
    }, 
    {
        "pk": 116, 
        "model": "flights_app.Airport", 
        "fields": {
            "IATA_code": "YQL", 
            "city": "Lethbridge", 
            "timezone": -7.0, 
            "name": "Lethbridge", 
            "ICAO_code": "CYQL", 
            "lat": 49.630278, 
            "country": "Canada", 
            "alt": 3047, 
            "lon": -112.799722, 
            "DST": "A"
        }
    }, 
    {
        "pk": 117, 
        "model": "flights_app.Airport", 
        "fields": {
            "IATA_code": "YQM", 
            "city": "Moncton", 
            "timezone": -4.0, 
            "name": "Greater Moncton Intl", 
            "ICAO_code": "CYQM", 
            "lat": 46.112221, 
            "country": "Canada", 
            "alt": 232, 
            "lon": -64.678611, 
            "DST": "A"
        }
    }, 
    {
        "pk": 119, 
        "model": "flights_app.Airport", 
        "fields": {
            "IATA_code": "YQQ", 
            "city": "Comox", 
            "timezone": -8.0, 
            "name": "Comox", 
            "ICAO_code": "CYQQ", 
            "lat": 49.710833, 
            "country": "Canada", 
            "alt": 84, 
            "lon": -124.886667, 
            "DST": "A"
        }
    }, 
    {
        "pk": 120, 
        "model": "flights_app.Airport", 
        "fields": {
            "IATA_code": "YQR", 
            "city": "Regina", 
            "timezone": -6.0, 
            "name": "Regina Intl", 
            "ICAO_code": "CYQR", 
            "lat": 50.431944, 
            "country": "Canada", 
            "alt": 1894, 
            "lon": -104.665833, 
            "DST": "N"
        }
    }, 
    {
        "pk": 121, 
        "model": "flights_app.Airport", 
        "fields": {
            "IATA_code": "YQT", 
            "city": "Thunder Bay", 
            "timezone": -5.0, 
            "name": "Thunder Bay", 
            "ICAO_code": "CYQT", 
            "lat": 48.371944, 
            "country": "Canada", 
            "alt": 653, 
            "lon": -89.323889, 
            "DST": "A"
        }
    }, 
    {
        "pk": 122, 
        "model": "flights_app.Airport", 
        "fields": {
            "IATA_code": "YQU", 
            "city": "Grande Prairie", 
            "timezone": -7.0, 
            "name": "Grande Prairie", 
            "ICAO_code": "CYQU", 
            "lat": 55.179722, 
            "country": "Canada", 
            "alt": 2195, 
            "lon": -118.885, 
            "DST": "A"
        }
    }, 
    {
        "pk": 123, 
        "model": "flights_app.Airport", 
        "fields": {
            "IATA_code": "YQV", 
            "city": "Yorkton", 
            "timezone": -6.0, 
            "name": "Yorkton Muni", 
            "ICAO_code": "CYQV", 
            "lat": 51.264721, 
            "country": "Canada", 
            "alt": 1635, 
            "lon": -102.461667, 
            "DST": "N"
        }
    }, 
    {
        "pk": 124, 
        "model": "flights_app.Airport", 
        "fields": {
            "IATA_code": "YQW", 
            "city": "North Battleford", 
            "timezone": -6.0, 
            "name": "North Battleford", 
            "ICAO_code": "CYQW", 
            "lat": 52.769167, 
            "country": "Canada", 
            "alt": 1799, 
            "lon": -108.24361, 
            "DST": "N"
        }
    }, 
    {
        "pk": 125, 
        "model": "flights_app.Airport", 
        "fields": {
            "IATA_code": "YQX", 
            "city": "Gander", 
            "timezone": -4.0, 
            "name": "Gander Intl", 
            "ICAO_code": "CYQX", 
            "lat": 48.936944, 
            "country": "Canada", 
            "alt": 496, 
            "lon": -54.568056, 
            "DST": "A"
        }
    }, 
    {
        "pk": 126, 
        "model": "flights_app.Airport", 
        "fields": {
            "IATA_code": "YQY", 
            "city": "Sydney", 
            "timezone": -4.0, 
            "name": "Sydney", 
            "ICAO_code": "CYQY", 
            "lat": 46.161388, 
            "country": "Canada", 
            "alt": 203, 
            "lon": -60.047779, 
            "DST": "A"
        }
    }, 
    {
        "pk": 127, 
        "model": "flights_app.Airport", 
        "fields": {
            "IATA_code": "YQZ", 
            "city": "Quesnel", 
            "timezone": -8.0, 
            "name": "Quesnel", 
            "ICAO_code": "CYQZ", 
            "lat": 53.026112, 
            "country": "Canada", 
            "alt": 1789, 
            "lon": -122.510278, 
            "DST": "A"
        }
    }, 
    {
        "pk": 128, 
        "model": "flights_app.Airport", 
        "fields": {
            "IATA_code": "YRB", 
            "city": "Resolute", 
            "timezone": -6.0, 
            "name": "Resolute Bay", 
            "ICAO_code": "CYRB", 
            "lat": 74.716944, 
            "country": "Canada", 
            "alt": 215, 
            "lon": -94.969444, 
            "DST": "A"
        }
    }, 
    {
        "pk": 129, 
        "model": "flights_app.Airport", 
        "fields": {
            "IATA_code": "YRI", 
            "city": "Riviere Du Loup", 
            "timezone": -5.0, 
            "name": "Riviere Du Loup", 
            "ICAO_code": "CYRI", 
            "lat": 47.764444, 
            "country": "Canada", 
            "alt": 427, 
            "lon": -69.584722, 
            "DST": "A"
        }
    }, 
    {
        "pk": 130, 
        "model": "flights_app.Airport", 
        "fields": {
            "IATA_code": "YRJ", 
            "city": "Roberval", 
            "timezone": -5.0, 
            "name": "Roberval", 
            "ICAO_code": "CYRJ", 
            "lat": 48.52, 
            "country": "Canada", 
            "alt": 586, 
            "lon": -72.265556, 
            "DST": "A"
        }
    }, 
    {
        "pk": 131, 
        "model": "flights_app.Airport", 
        "fields": {
            "IATA_code": "YRM", 
            "city": "Rocky Mountain House", 
            "timezone": -7.0, 
            "name": "Rocky Mountain House", 
            "ICAO_code": "CYRM", 
            "lat": 52.429722, 
            "country": "Canada", 
            "alt": 3244, 
            "lon": -114.904167, 
            "DST": "A"
        }
    }, 
    {
        "pk": 132, 
        "model": "flights_app.Airport", 
        "fields": {
            "IATA_code": "YRT", 
            "city": "Rankin Inlet", 
            "timezone": -6.0, 
            "name": "Rankin Inlet", 
            "ICAO_code": "CYRT", 
            "lat": 62.81139, 
            "country": "Canada", 
            "alt": 94, 
            "lon": -92.115833, 
            "DST": "A"
        }
    }, 
    {
        "pk": 133, 
        "model": "flights_app.Airport", 
        "fields": {
            "IATA_code": "YSB", 
            "city": "Sudbury", 
            "timezone": -5.0, 
            "name": "Sudbury", 
            "ICAO_code": "CYSB", 
            "lat": 46.625, 
            "country": "Canada", 
            "alt": 1141, 
            "lon": -80.798889, 
            "DST": "A"
        }
    }, 
    {
        "pk": 134, 
        "model": "flights_app.Airport", 
        "fields": {
            "IATA_code": "YSC", 
            "city": "Sherbrooke", 
            "timezone": -5.0, 
            "name": "Sherbrooke", 
            "ICAO_code": "CYSC", 
            "lat": 45.438611, 
            "country": "Canada", 
            "alt": 792, 
            "lon": -71.691389, 
            "DST": "A"
        }
    }, 
    {
        "pk": 135, 
        "model": "flights_app.Airport", 
        "fields": {
            "IATA_code": "YSJ", 
            "city": "St. John", 
            "timezone": -4.0, 
            "name": "Saint John", 
            "ICAO_code": "CYSJ", 
            "lat": 45.316111, 
            "country": "Canada", 
            "alt": 357, 
            "lon": -65.890278, 
            "DST": "A"
        }
    }, 
    {
        "pk": 136, 
        "model": "flights_app.Airport", 
        "fields": {
            "IATA_code": "YSM", 
            "city": "Fort Smith", 
            "timezone": -7.0, 
            "name": "Fort Smith", 
            "ICAO_code": "CYSM", 
            "lat": 60.020278, 
            "country": "Canada", 
            "alt": 671, 
            "lon": -111.961944, 
            "DST": "A"
        }
    }, 
    {
        "pk": 137, 
        "model": "flights_app.Airport", 
        "fields": {
            "IATA_code": "YSR", 
            "city": "Nanisivik", 
            "timezone": -5.0, 
            "name": "Nanisivik", 
            "ICAO_code": "CYSR", 
            "lat": 72.982222, 
            "country": "Canada", 
            "alt": 2106, 
            "lon": -84.613611, 
            "DST": "A"
        }
    }, 
    {
        "pk": 138, 
        "model": "flights_app.Airport", 
        "fields": {
            "IATA_code": "YSU", 
            "city": "Summerside", 
            "timezone": -4.0, 
            "name": "Summerside", 
            "ICAO_code": "CYSU", 
            "lat": 46.440556, 
            "country": "Canada", 
            "alt": 56, 
            "lon": -63.833611, 
            "DST": "A"
        }
    }, 
    {
        "pk": 139, 
        "model": "flights_app.Airport", 
        "fields": {
            "IATA_code": "YSY", 
            "city": "Sachs Harbour", 
            "timezone": -7.0, 
            "name": "Sachs Harbour", 
            "ICAO_code": "CYSY", 
            "lat": 71.993889, 
            "country": "Canada", 
            "alt": 282, 
            "lon": -125.2425, 
            "DST": "A"
        }
    }, 
    {
        "pk": 140, 
        "model": "flights_app.Airport", 
        "fields": {
            "IATA_code": "YTE", 
            "city": "Cape Dorset", 
            "timezone": -5.0, 
            "name": "Cape Dorset", 
            "ICAO_code": "CYTE", 
            "lat": 64.23, 
            "country": "Canada", 
            "alt": 164, 
            "lon": -76.526667, 
            "DST": "A"
        }
    }, 
    {
        "pk": 141, 
        "model": "flights_app.Airport", 
        "fields": {
            "IATA_code": "YTH", 
            "city": "Thompson", 
            "timezone": -6.0, 
            "name": "Thompson", 
            "ICAO_code": "CYTH", 
            "lat": 55.801111, 
            "country": "Canada", 
            "alt": 729, 
            "lon": -97.864166, 
            "DST": "A"
        }
    }, 
    {
        "pk": 142, 
        "model": "flights_app.Airport", 
        "fields": {
            "IATA_code": "YTR", 
            "city": "Trenton", 
            "timezone": -5.0, 
            "name": "Trenton", 
            "ICAO_code": "CYTR", 
            "lat": 44.118889, 
            "country": "Canada", 
            "alt": 283, 
            "lon": -77.528056, 
            "DST": "A"
        }
    }, 
    {
        "pk": 143, 
        "model": "flights_app.Airport", 
        "fields": {
            "IATA_code": "YTS", 
            "city": "Timmins", 
            "timezone": -5.0, 
            "name": "Timmins", 
            "ICAO_code": "CYTS", 
            "lat": 48.569721, 
            "country": "Canada", 
            "alt": 967, 
            "lon": -81.376667, 
            "DST": "A"
        }
    }, 
    {
        "pk": 144, 
        "model": "flights_app.Airport", 
        "fields": {
            "IATA_code": "YTZ", 
            "city": "Toronto", 
            "timezone": -5.0, 
            "name": "City Centre", 
            "ICAO_code": "CYTZ", 
            "lat": 43.627499, 
            "country": "Canada", 
            "alt": 251, 
            "lon": -79.396167, 
            "DST": "A"
        }
    }, 
    {
        "pk": 145, 
        "model": "flights_app.Airport", 
        "fields": {
            "IATA_code": "YUB", 
            "city": "Tuktoyaktuk", 
            "timezone": -7.0, 
            "name": "Tuktoyaktuk", 
            "ICAO_code": "CYUB", 
            "lat": 69.433334, 
            "country": "Canada", 
            "alt": 15, 
            "lon": -133.026389, 
            "DST": "A"
        }
    }, 
    {
        "pk": 146, 
        "model": "flights_app.Airport", 
        "fields": {
            "IATA_code": "YUL", 
            "city": "Montreal", 
            "timezone": -5.0, 
            "name": "Pierre Elliott Trudeau Intl", 
            "ICAO_code": "CYUL", 
            "lat": 45.470556, 
            "country": "Canada", 
            "alt": 118, 
            "lon": -73.740833, 
            "DST": "A"
        }
    }, 
    {
        "pk": 147, 
        "model": "flights_app.Airport", 
        "fields": {
            "IATA_code": "YUT", 
            "city": "Repulse Bay", 
            "timezone": -6.0, 
            "name": "Repulse Bay", 
            "ICAO_code": "CYUT", 
            "lat": 66.521389, 
            "country": "Canada", 
            "alt": 80, 
            "lon": -86.224722, 
            "DST": "A"
        }
    }, 
    {
        "pk": 148, 
        "model": "flights_app.Airport", 
        "fields": {
            "IATA_code": "YUX", 
            "city": "Hall Beach", 
            "timezone": -5.0, 
            "name": "Hall Beach", 
            "ICAO_code": "CYUX", 
            "lat": 68.776111, 
            "country": "Canada", 
            "alt": 27, 
            "lon": -81.243611, 
            "DST": "A"
        }
    }, 
    {
        "pk": 149, 
        "model": "flights_app.Airport", 
        "fields": {
            "IATA_code": "YUY", 
            "city": "Rouyn", 
            "timezone": -5.0, 
            "name": "Rouyn Noranda", 
            "ICAO_code": "CYUY", 
            "lat": 48.206111, 
            "country": "Canada", 
            "alt": 988, 
            "lon": -78.835556, 
            "DST": "A"
        }
    }, 
    {
        "pk": 150, 
        "model": "flights_app.Airport", 
        "fields": {
            "IATA_code": "YVC", 
            "city": "La Ronge", 
            "timezone": -6.0, 
            "name": "La Ronge", 
            "ICAO_code": "CYVC", 
            "lat": 55.15139, 
            "country": "Canada", 
            "alt": 1242, 
            "lon": -105.261944, 
            "DST": "N"
        }
    }, 
    {
        "pk": 151, 
        "model": "flights_app.Airport", 
        "fields": {
            "IATA_code": "YVG", 
            "city": "Vermillion", 
            "timezone": -7.0, 
            "name": "Vermilion", 
            "ICAO_code": "CYVG", 
            "lat": 53.355833, 
            "country": "Canada", 
            "alt": 2025, 
            "lon": -110.82389, 
            "DST": "A"
        }
    }, 
    {
        "pk": 152, 
        "model": "flights_app.Airport", 
        "fields": {
            "IATA_code": "YVM", 
            "city": "Broughton Island", 
            "timezone": -5.0, 
            "name": "Qikiqtarjuaq", 
            "ICAO_code": "CYVM", 
            "lat": 67.545833, 
            "country": "Canada", 
            "alt": 21, 
            "lon": -64.031389, 
            "DST": "A"
        }
    }, 
    {
        "pk": 153, 
        "model": "flights_app.Airport", 
        "fields": {
            "IATA_code": "YVO", 
            "city": "Val D'or", 
            "timezone": -5.0, 
            "name": "Val D Or", 
            "ICAO_code": "CYVO", 
            "lat": 48.053333, 
            "country": "Canada", 
            "alt": 1107, 
            "lon": -77.782778, 
            "DST": "A"
        }
    }, 
    {
        "pk": 154, 
        "model": "flights_app.Airport", 
        "fields": {
            "IATA_code": "YVP", 
            "city": "Quujjuaq", 
            "timezone": -5.0, 
            "name": "Kuujjuaq", 
            "ICAO_code": "CYVP", 
            "lat": 58.096111, 
            "country": "Canada", 
            "alt": 129, 
            "lon": -68.426944, 
            "DST": "A"
        }
    }, 
    {
        "pk": 155, 
        "model": "flights_app.Airport", 
        "fields": {
            "IATA_code": "YVQ", 
            "city": "Norman Wells", 
            "timezone": -7.0, 
            "name": "Norman Wells", 
            "ICAO_code": "CYVQ", 
            "lat": 65.281617, 
            "country": "Canada", 
            "alt": 238, 
            "lon": -126.798219, 
            "DST": "A"
        }
    }, 
    {
        "pk": 156, 
        "model": "flights_app.Airport", 
        "fields": {
            "IATA_code": "YVR", 
            "city": "Vancouver", 
            "timezone": -8.0, 
            "name": "Vancouver Intl", 
            "ICAO_code": "CYVR", 
            "lat": 49.193889, 
            "country": "Canada", 
            "alt": 14, 
            "lon": -123.184444, 
            "DST": "A"
        }
    }, 
    {
        "pk": 157, 
        "model": "flights_app.Airport", 
        "fields": {
            "IATA_code": "YVT", 
            "city": "Buffalo Narrows", 
            "timezone": -6.0, 
            "name": "Buffalo Narrows", 
            "ICAO_code": "CYVT", 
            "lat": 55.841944, 
            "country": "Canada", 
            "alt": 1444, 
            "lon": -108.4175, 
            "DST": "N"
        }
    }, 
    {
        "pk": 158, 
        "model": "flights_app.Airport", 
        "fields": {
            "IATA_code": "YVV", 
            "city": "Wiarton", 
            "timezone": -5.0, 
            "name": "Wiarton", 
            "ICAO_code": "CYVV", 
            "lat": 44.745834, 
            "country": "Canada", 
            "alt": 729, 
            "lon": -81.107222, 
            "DST": "A"
        }
    }, 
    {
        "pk": 159, 
        "model": "flights_app.Airport", 
        "fields": {
            "IATA_code": "YWA", 
            "city": "Petawawa", 
            "timezone": -5.0, 
            "name": "Petawawa", 
            "ICAO_code": "CYWA", 
            "lat": 45.952221, 
            "country": "Canada", 
            "alt": 427, 
            "lon": -77.319168, 
            "DST": "A"
        }
    }, 
    {
        "pk": 160, 
        "model": "flights_app.Airport", 
        "fields": {
            "IATA_code": "YWG", 
            "city": "Winnipeg", 
            "timezone": -6.0, 
            "name": "Winnipeg Intl", 
            "ICAO_code": "CYWG", 
            "lat": 49.910036, 
            "country": "Canada", 
            "alt": 783, 
            "lon": -97.239886, 
            "DST": "A"
        }
    }, 
    {
        "pk": 161, 
        "model": "flights_app.Airport", 
        "fields": {
            "IATA_code": "YWK", 
            "city": "Wabush", 
            "timezone": -4.0, 
            "name": "Wabush", 
            "ICAO_code": "CYWK", 
            "lat": 52.921944, 
            "country": "Canada", 
            "alt": 1808, 
            "lon": -66.864444, 
            "DST": "A"
        }
    }, 
    {
        "pk": 162, 
        "model": "flights_app.Airport", 
        "fields": {
            "IATA_code": "YWL", 
            "city": "Williams Lake", 
            "timezone": -8.0, 
            "name": "Williams Lake", 
            "ICAO_code": "CYWL", 
            "lat": 52.183056, 
            "country": "Canada", 
            "alt": 3085, 
            "lon": -122.054167, 
            "DST": "A"
        }
    }, 
    {
        "pk": 163, 
        "model": "flights_app.Airport", 
        "fields": {
            "IATA_code": "YWY", 
            "city": "Wrigley", 
            "timezone": -7.0, 
            "name": "Wrigley", 
            "ICAO_code": "CYWY", 
            "lat": 63.209444, 
            "country": "Canada", 
            "alt": 489, 
            "lon": -123.436667, 
            "DST": "A"
        }
    }, 
    {
        "pk": 164, 
        "model": "flights_app.Airport", 
        "fields": {
            "IATA_code": "YXC", 
            "city": "Cranbrook", 
            "timezone": -7.0, 
            "name": "Canadian Rockies Intl", 
            "ICAO_code": "CYXC", 
            "lat": 49.612222, 
            "country": "Canada", 
            "alt": 3084, 
            "lon": -115.781944, 
            "DST": "A"
        }
    }, 
    {
        "pk": 165, 
        "model": "flights_app.Airport", 
        "fields": {
            "IATA_code": "YXD", 
            "city": "Edmonton", 
            "timezone": -7.0, 
            "name": "Edmonton City Centre", 
            "ICAO_code": "CYXD", 
            "lat": 53.5725, 
            "country": "Canada", 
            "alt": 2200, 
            "lon": -113.520556, 
            "DST": "A"
        }
    }, 
    {
        "pk": 166, 
        "model": "flights_app.Airport", 
        "fields": {
            "IATA_code": "YXE", 
            "city": "Saskatoon", 
            "timezone": -6.0, 
            "name": "Saskatoon J G Diefenbaker Intl", 
            "ICAO_code": "CYXE", 
            "lat": 52.170834, 
            "country": "Canada", 
            "alt": 1653, 
            "lon": -106.699722, 
            "DST": "N"
        }
    }, 
    {
        "pk": 167, 
        "model": "flights_app.Airport", 
        "fields": {
            "IATA_code": "YXH", 
            "city": "Medicine Hat", 
            "timezone": -7.0, 
            "name": "Medicine Hat", 
            "ICAO_code": "CYXH", 
            "lat": 50.01889, 
            "country": "Canada", 
            "alt": 2352, 
            "lon": -110.720833, 
            "DST": "A"
        }
    }, 
    {
        "pk": 168, 
        "model": "flights_app.Airport", 
        "fields": {
            "IATA_code": "YXJ", 
            "city": "Fort Saint John", 
            "timezone": -8.0, 
            "name": "Fort St John", 
            "ICAO_code": "CYXJ", 
            "lat": 56.238056, 
            "country": "Canada", 
            "alt": 2280, 
            "lon": -120.740278, 
            "DST": "A"
        }
    }, 
    {
        "pk": 169, 
        "model": "flights_app.Airport", 
        "fields": {
            "IATA_code": "YXL", 
            "city": "Sioux Lookout", 
            "timezone": -6.0, 
            "name": "Sioux Lookout", 
            "ICAO_code": "CYXL", 
            "lat": 50.113889, 
            "country": "Canada", 
            "alt": 1258, 
            "lon": -91.905278, 
            "DST": "A"
        }
    }, 
    {
        "pk": 170, 
        "model": "flights_app.Airport", 
        "fields": {
            "IATA_code": "YXP", 
            "city": "Pangnirtung", 
            "timezone": -5.0, 
            "name": "Pangnirtung", 
            "ICAO_code": "CYXP", 
            "lat": 66.145, 
            "country": "Canada", 
            "alt": 75, 
            "lon": -65.713611, 
            "DST": "A"
        }
    }, 
    {
        "pk": 171, 
        "model": "flights_app.Airport", 
        "fields": {
            "IATA_code": "YXR", 
            "city": "Earlton", 
            "timezone": -5.0, 
            "name": "Timiskaming Rgnl", 
            "ICAO_code": "CYXR", 
            "lat": 47.695, 
            "country": "Canada", 
            "alt": 798, 
            "lon": -79.848889, 
            "DST": "A"
        }
    }, 
    {
        "pk": 172, 
        "model": "flights_app.Airport", 
        "fields": {
            "IATA_code": "YXS", 
            "city": "Prince George", 
            "timezone": -8.0, 
            "name": "Prince George", 
            "ICAO_code": "CYXS", 
            "lat": 53.889444, 
            "country": "Canada", 
            "alt": 2267, 
            "lon": -122.678889, 
            "DST": "A"
        }
    }, 
    {
        "pk": 173, 
        "model": "flights_app.Airport", 
        "fields": {
            "IATA_code": "YXT", 
            "city": "Terrace", 
            "timezone": -8.0, 
            "name": "Terrace", 
            "ICAO_code": "CYXT", 
            "lat": 54.468508, 
            "country": "Canada", 
            "alt": 713, 
            "lon": -128.576219, 
            "DST": "A"
        }
    }, 
    {
        "pk": 174, 
        "model": "flights_app.Airport", 
        "fields": {
            "IATA_code": "YXU", 
            "city": "London", 
            "timezone": -5.0, 
            "name": "London", 
            "ICAO_code": "CYXU", 
            "lat": 43.033056, 
            "country": "Canada", 
            "alt": 912, 
            "lon": -81.151111, 
            "DST": "A"
        }
    }, 
    {
        "pk": 175, 
        "model": "flights_app.Airport", 
        "fields": {
            "IATA_code": "YXX", 
            "city": "Abbotsford", 
            "timezone": -8.0, 
            "name": "Abbotsford", 
            "ICAO_code": "CYXX", 
            "lat": 49.025278, 
            "country": "Canada", 
            "alt": 195, 
            "lon": -122.360556, 
            "DST": "A"
        }
    }, 
    {
        "pk": 176, 
        "model": "flights_app.Airport", 
        "fields": {
            "IATA_code": "YXY", 
            "city": "Whitehorse", 
            "timezone": -8.0, 
            "name": "Whitehorse Intl", 
            "ICAO_code": "CYXY", 
            "lat": 60.709553, 
            "country": "Canada", 
            "alt": 2317, 
            "lon": -135.067269, 
            "DST": "A"
        }
    }, 
    {
        "pk": 177, 
        "model": "flights_app.Airport", 
        "fields": {
            "IATA_code": "YYB", 
            "city": "North Bay", 
            "timezone": -5.0, 
            "name": "North Bay", 
            "ICAO_code": "CYYB", 
            "lat": 46.363611, 
            "country": "Canada", 
            "alt": 1215, 
            "lon": -79.422778, 
            "DST": "A"
        }
    }, 
    {
        "pk": 178, 
        "model": "flights_app.Airport", 
        "fields": {
            "IATA_code": "YYC", 
            "city": "Calgary", 
            "timezone": -7.0, 
            "name": "Calgary Intl", 
            "ICAO_code": "CYYC", 
            "lat": 51.113888, 
            "country": "Canada", 
            "alt": 3557, 
            "lon": -114.020278, 
            "DST": "A"
        }
    }, 
    {
        "pk": 179, 
        "model": "flights_app.Airport", 
        "fields": {
            "IATA_code": "YYD", 
            "city": "Smithers", 
            "timezone": -8.0, 
            "name": "Smithers", 
            "ICAO_code": "CYYD", 
            "lat": 54.824722, 
            "country": "Canada", 
            "alt": 1712, 
            "lon": -127.182778, 
            "DST": "A"
        }
    }, 
    {
        "pk": 180, 
        "model": "flights_app.Airport", 
        "fields": {
            "IATA_code": "YYE", 
            "city": "Fort Nelson", 
            "timezone": -8.0, 
            "name": "Fort Nelson", 
            "ICAO_code": "CYYE", 
            "lat": 58.836389, 
            "country": "Canada", 
            "alt": 1253, 
            "lon": -122.596944, 
            "DST": "A"
        }
    }, 
    {
        "pk": 181, 
        "model": "flights_app.Airport", 
        "fields": {
            "IATA_code": "YYF", 
            "city": "Penticton", 
            "timezone": -8.0, 
            "name": "Penticton", 
            "ICAO_code": "CYYF", 
            "lat": 49.463056, 
            "country": "Canada", 
            "alt": 1129, 
            "lon": -119.602222, 
            "DST": "A"
        }
    }, 
    {
        "pk": 182, 
        "model": "flights_app.Airport", 
        "fields": {
            "IATA_code": "YYG", 
            "city": "Charlottetown", 
            "timezone": -4.0, 
            "name": "Charlottetown", 
            "ICAO_code": "CYYG", 
            "lat": 46.290001, 
            "country": "Canada", 
            "alt": 160, 
            "lon": -63.121111, 
            "DST": "A"
        }
    }, 
    {
        "pk": 183, 
        "model": "flights_app.Airport", 
        "fields": {
            "IATA_code": "YYH", 
            "city": "Spence Bay", 
            "timezone": -6.0, 
            "name": "Taloyoak", 
            "ICAO_code": "CYYH", 
            "lat": 69.546667, 
            "country": "Canada", 
            "alt": 92, 
            "lon": -93.576667, 
            "DST": "A"
        }
    }, 
    {
        "pk": 184, 
        "model": "flights_app.Airport", 
        "fields": {
            "IATA_code": "YYJ", 
            "city": "Victoria", 
            "timezone": -8.0, 
            "name": "Victoria Intl", 
            "ICAO_code": "CYYJ", 
            "lat": 48.646944, 
            "country": "Canada", 
            "alt": 63, 
            "lon": -123.425833, 
            "DST": "A"
        }
    }, 
    {
        "pk": 185, 
        "model": "flights_app.Airport", 
        "fields": {
            "IATA_code": "YYL", 
            "city": "Lynn Lake", 
            "timezone": -6.0, 
            "name": "Lynn Lake", 
            "ICAO_code": "CYYL", 
            "lat": 56.863888, 
            "country": "Canada", 
            "alt": 1170, 
            "lon": -101.07611, 
            "DST": "A"
        }
    }, 
    {
        "pk": 186, 
        "model": "flights_app.Airport", 
        "fields": {
            "IATA_code": "YYN", 
            "city": "Swift Current", 
            "timezone": -6.0, 
            "name": "Swift Current", 
            "ICAO_code": "CYYN", 
            "lat": 50.291944, 
            "country": "Canada", 
            "alt": 2680, 
            "lon": -107.690556, 
            "DST": "N"
        }
    }, 
    {
        "pk": 187, 
        "model": "flights_app.Airport", 
        "fields": {
            "IATA_code": "YYQ", 
            "city": "Churchill", 
            "timezone": -6.0, 
            "name": "Churchill", 
            "ICAO_code": "CYYQ", 
            "lat": 58.739167, 
            "country": "Canada", 
            "alt": 94, 
            "lon": -94.065, 
            "DST": "A"
        }
    }, 
    {
        "pk": 188, 
        "model": "flights_app.Airport", 
        "fields": {
            "IATA_code": "YYR", 
            "city": "Goose Bay", 
            "timezone": -4.0, 
            "name": "Goose Bay", 
            "ICAO_code": "CYYR", 
            "lat": 53.319168, 
            "country": "Canada", 
            "alt": 160, 
            "lon": -60.425833, 
            "DST": "A"
        }
    }, 
    {
        "pk": 189, 
        "model": "flights_app.Airport", 
        "fields": {
            "IATA_code": "YYT", 
            "city": "St. John's", 
            "timezone": -3.5, 
            "name": "St Johns Intl", 
            "ICAO_code": "CYYT", 
            "lat": 47.61861, 
            "country": "Canada", 
            "alt": 461, 
            "lon": -52.751945, 
            "DST": "A"
        }
    }, 
    {
        "pk": 190, 
        "model": "flights_app.Airport", 
        "fields": {
            "IATA_code": "YYU", 
            "city": "Kapuskasing", 
            "timezone": -5.0, 
            "name": "Kapuskasing", 
            "ICAO_code": "CYYU", 
            "lat": 49.413889, 
            "country": "Canada", 
            "alt": 743, 
            "lon": -82.4675, 
            "DST": "A"
        }
    }, 
    {
        "pk": 191, 
        "model": "flights_app.Airport", 
        "fields": {
            "IATA_code": "YYW", 
            "city": "Armstrong", 
            "timezone": -5.0, 
            "name": "Armstrong", 
            "ICAO_code": "CYYW", 
            "lat": 50.290279, 
            "country": "Canada", 
            "alt": 1058, 
            "lon": -88.909721, 
            "DST": "A"
        }
    }, 
    {
        "pk": 192, 
        "model": "flights_app.Airport", 
        "fields": {
            "IATA_code": "YYY", 
            "city": "Mont Joli", 
            "timezone": -5.0, 
            "name": "Mont Joli", 
            "ICAO_code": "CYYY", 
            "lat": 48.608612, 
            "country": "Canada", 
            "alt": 172, 
            "lon": -68.208056, 
            "DST": "A"
        }
    }, 
    {
        "pk": 193, 
        "model": "flights_app.Airport", 
        "fields": {
            "IATA_code": "YYZ", 
            "city": "Toronto", 
            "timezone": -5.0, 
            "name": "Lester B Pearson Intl", 
            "ICAO_code": "CYYZ", 
            "lat": 43.677223, 
            "country": "Canada", 
            "alt": 569, 
            "lon": -79.630556, 
            "DST": "A"
        }
    }, 
    {
        "pk": 194, 
        "model": "flights_app.Airport", 
        "fields": {
            "IATA_code": "YZD", 
            "city": "Toronto", 
            "timezone": -5.0, 
            "name": "Downsview", 
            "ICAO_code": "CYZD", 
            "lat": 43.7425, 
            "country": "Canada", 
            "alt": 652, 
            "lon": -79.465556, 
            "DST": "A"
        }
    }, 
    {
        "pk": 195, 
        "model": "flights_app.Airport", 
        "fields": {
            "IATA_code": "YZE", 
            "city": "Gore Bay", 
            "timezone": -5.0, 
            "name": "Gore Bay Manitoulin", 
            "ICAO_code": "CYZE", 
            "lat": 45.885277, 
            "country": "Canada", 
            "alt": 635, 
            "lon": -82.567778, 
            "DST": "A"
        }
    }, 
    {
        "pk": 196, 
        "model": "flights_app.Airport", 
        "fields": {
            "IATA_code": "YZF", 
            "city": "Yellowknife", 
            "timezone": -7.0, 
            "name": "Yellowknife", 
            "ICAO_code": "CYZF", 
            "lat": 62.462778, 
            "country": "Canada", 
            "alt": 675, 
            "lon": -114.440278, 
            "DST": "A"
        }
    }, 
    {
        "pk": 197, 
        "model": "flights_app.Airport", 
        "fields": {
            "IATA_code": "YZH", 
            "city": "Slave Lake", 
            "timezone": -7.0, 
            "name": "Slave Lake", 
            "ICAO_code": "CYZH", 
            "lat": 55.293056, 
            "country": "Canada", 
            "alt": 1912, 
            "lon": -114.777222, 
            "DST": "A"
        }
    }, 
    {
        "pk": 198, 
        "model": "flights_app.Airport", 
        "fields": {
            "IATA_code": "YZP", 
            "city": "Sandspit", 
            "timezone": -8.0, 
            "name": "Sandspit", 
            "ICAO_code": "CYZP", 
            "lat": 53.254333, 
            "country": "Canada", 
            "alt": 21, 
            "lon": -131.813833, 
            "DST": "A"
        }
    }, 
    {
        "pk": 199, 
        "model": "flights_app.Airport", 
        "fields": {
            "IATA_code": "YZR", 
            "city": "Sarnia", 
            "timezone": -5.0, 
            "name": "Chris Hadfield", 
            "ICAO_code": "CYZR", 
            "lat": 42.999444, 
            "country": "Canada", 
            "alt": 594, 
            "lon": -82.308889, 
            "DST": "A"
        }
    }, 
    {
        "pk": 200, 
        "model": "flights_app.Airport", 
        "fields": {
            "IATA_code": "YZT", 
            "city": "Port Hardy", 
            "timezone": -8.0, 
            "name": "Port Hardy", 
            "ICAO_code": "CYZT", 
            "lat": 50.680556, 
            "country": "Canada", 
            "alt": 71, 
            "lon": -127.366667, 
            "DST": "A"
        }
    }, 
    {
        "pk": 201, 
        "model": "flights_app.Airport", 
        "fields": {
            "IATA_code": "YZU", 
            "city": "Whitecourt", 
            "timezone": -7.0, 
            "name": "Whitecourt", 
            "ICAO_code": "CYZU", 
            "lat": 54.14389, 
            "country": "Canada", 
            "alt": 2567, 
            "lon": -115.786667, 
            "DST": "A"
        }
    }, 
    {
        "pk": 202, 
        "model": "flights_app.Airport", 
        "fields": {
            "IATA_code": "YZV", 
            "city": "Sept-iles", 
            "timezone": -5.0, 
            "name": "Sept Iles", 
            "ICAO_code": "CYZV", 
            "lat": 50.223333, 
            "country": "Canada", 
            "alt": 180, 
            "lon": -66.265556, 
            "DST": "A"
        }
    }, 
    {
        "pk": 203, 
        "model": "flights_app.Airport", 
        "fields": {
            "IATA_code": "YZW", 
            "city": "Teslin", 
            "timezone": -8.0, 
            "name": "Teslin", 
            "ICAO_code": "CYZW", 
            "lat": 60.172779, 
            "country": "Canada", 
            "alt": 2313, 
            "lon": -132.742778, 
            "DST": "A"
        }
    }, 
    {
        "pk": 204, 
        "model": "flights_app.Airport", 
        "fields": {
            "IATA_code": "YZX", 
            "city": "Greenwood", 
            "timezone": -4.0, 
            "name": "Greenwood", 
            "ICAO_code": "CYZX", 
            "lat": 44.984444, 
            "country": "Canada", 
            "alt": 92, 
            "lon": -64.916944, 
            "DST": "A"
        }
    }, 
    {
        "pk": 205, 
        "model": "flights_app.Airport", 
        "fields": {
            "IATA_code": "ZFA", 
            "city": "Faro", 
            "timezone": -8.0, 
            "name": "Faro", 
            "ICAO_code": "CZFA", 
            "lat": 62.2075, 
            "country": "Canada", 
            "alt": 2351, 
            "lon": -133.375833, 
            "DST": "A"
        }
    }, 
    {
        "pk": 206, 
        "model": "flights_app.Airport", 
        "fields": {
            "IATA_code": "ZFM", 
            "city": "Fort Mcpherson", 
            "timezone": -7.0, 
            "name": "Fort Mcpherson", 
            "ICAO_code": "CZFM", 
            "lat": 67.4075, 
            "country": "Canada", 
            "alt": 116, 
            "lon": -134.860556, 
            "DST": "A"
        }
    }, 
    {
        "pk": 207, 
        "model": "flights_app.Airport", 
        "fields": {
            "IATA_code": "", 
            "city": "Blida", 
            "timezone": 1.0, 
            "name": "Blida", 
            "ICAO_code": "DAAB", 
            "lat": 36.503613, 
            "country": "Algeria", 
            "alt": 535, 
            "lon": 2.814167, 
            "DST": "N"
        }
    }, 
    {
        "pk": 208, 
        "model": "flights_app.Airport", 
        "fields": {
            "IATA_code": "", 
            "city": "Bou Saada", 
            "timezone": 1.0, 
            "name": "Bou Saada", 
            "ICAO_code": "DAAD", 
            "lat": 35.3325, 
            "country": "Algeria", 
            "alt": 1506, 
            "lon": 4.206389, 
            "DST": "N"
        }
    }, 
    {
        "pk": 209, 
        "model": "flights_app.Airport", 
        "fields": {
            "IATA_code": "BJA", 
            "city": "Bejaja", 
            "timezone": 1.0, 
            "name": "Soummam", 
            "ICAO_code": "DAAE", 
            "lat": 36.711997, 
            "country": "Algeria", 
            "alt": 20, 
            "lon": 5.069922, 
            "DST": "N"
        }
    }, 
    {
        "pk": 210, 
        "model": "flights_app.Airport", 
        "fields": {
            "IATA_code": "ALG", 
            "city": "Algier", 
            "timezone": 1.0, 
            "name": "Houari Boumediene", 
            "ICAO_code": "DAAG", 
            "lat": 36.691014, 
            "country": "Algeria", 
            "alt": 82, 
            "lon": 3.215408, 
            "DST": "N"
        }
    }, 
    {
        "pk": 211, 
        "model": "flights_app.Airport", 
        "fields": {
            "IATA_code": "DJG", 
            "city": "Djanet", 
            "timezone": 1.0, 
            "name": "Tiska", 
            "ICAO_code": "DAAJ", 
            "lat": 24.292767, 
            "country": "Algeria", 
            "alt": 3176, 
            "lon": 9.452444, 
            "DST": "N"
        }
    }, 
    {
        "pk": 212, 
        "model": "flights_app.Airport", 
        "fields": {
            "IATA_code": "QFD", 
            "city": "Boufarik", 
            "timezone": 1.0, 
            "name": "Boufarik", 
            "ICAO_code": "DAAK", 
            "lat": 36.545834, 
            "country": "Algeria", 
            "alt": 335, 
            "lon": 2.876111, 
            "DST": "N"
        }
    }, 
    {
        "pk": 213, 
        "model": "flights_app.Airport", 
        "fields": {
            "IATA_code": "", 
            "city": "Reggan", 
            "timezone": 1.0, 
            "name": "Reggane", 
            "ICAO_code": "DAAN", 
            "lat": 26.710103, 
            "country": "Algeria", 
            "alt": 955, 
            "lon": 0.285647, 
            "DST": "N"
        }
    }, 
    {
        "pk": 214, 
        "model": "flights_app.Airport", 
        "fields": {
            "IATA_code": "VVZ", 
            "city": "Illizi", 
            "timezone": 1.0, 
            "name": "Illizi Takhamalt", 
            "ICAO_code": "DAAP", 
            "lat": 26.723536, 
            "country": "Algeria", 
            "alt": 1778, 
            "lon": 8.622653, 
            "DST": "N"
        }
    }, 
    {
        "pk": 215, 
        "model": "flights_app.Airport", 
        "fields": {
            "IATA_code": "", 
            "city": "Ain Oussera", 
            "timezone": 1.0, 
            "name": "Ain Oussera", 
            "ICAO_code": "DAAQ", 
            "lat": 35.525414, 
            "country": "Algeria", 
            "alt": 2132, 
            "lon": 2.878714, 
            "DST": "N"
        }
    }, 
    {
        "pk": 216, 
        "model": "flights_app.Airport", 
        "fields": {
            "IATA_code": "TMR", 
            "city": "Tamanrasset", 
            "timezone": 1.0, 
            "name": "Tamanrasset", 
            "ICAO_code": "DAAT", 
            "lat": 22.811461, 
            "country": "Algeria", 
            "alt": 4518, 
            "lon": 5.451075, 
            "DST": "N"
        }
    }, 
    {
        "pk": 217, 
        "model": "flights_app.Airport", 
        "fields": {
            "IATA_code": "GJL", 
            "city": "Jijel", 
            "timezone": 1.0, 
            "name": "Jijel", 
            "ICAO_code": "DAAV", 
            "lat": 36.795136, 
            "country": "Algeria", 
            "alt": 36, 
            "lon": 5.873608, 
            "DST": "N"
        }
    }, 
    {
        "pk": 218, 
        "model": "flights_app.Airport", 
        "fields": {
            "IATA_code": "", 
            "city": "Mecheria", 
            "timezone": 1.0, 
            "name": "Mecheria", 
            "ICAO_code": "DAAY", 
            "lat": 33.535853, 
            "country": "Algeria", 
            "alt": 3855, 
            "lon": -0.242353, 
            "DST": "N"
        }
    }, 
    {
        "pk": 219, 
        "model": "flights_app.Airport", 
        "fields": {
            "IATA_code": "", 
            "city": "Relizane", 
            "timezone": 1.0, 
            "name": "Relizane", 
            "ICAO_code": "DAAZ", 
            "lat": 35.752239, 
            "country": "Algeria", 
            "alt": 282, 
            "lon": 0.626272, 
            "DST": "N"
        }
    }, 
    {
        "pk": 220, 
        "model": "flights_app.Airport", 
        "fields": {
            "IATA_code": "AAE", 
            "city": "Annaba", 
            "timezone": 1.0, 
            "name": "Annaba", 
            "ICAO_code": "DABB", 
            "lat": 36.822225, 
            "country": "Algeria", 
            "alt": 16, 
            "lon": 7.809167, 
            "DST": "N"
        }
    }, 
    {
        "pk": 221, 
        "model": "flights_app.Airport", 
        "fields": {
            "IATA_code": "CZL", 
            "city": "Constantine", 
            "timezone": 1.0, 
            "name": "Mohamed Boudiaf Intl", 
            "ICAO_code": "DABC", 
            "lat": 36.276028, 
            "country": "Algeria", 
            "alt": 2265, 
            "lon": 6.620386, 
            "DST": "N"
        }
    }, 
    {
        "pk": 222, 
        "model": "flights_app.Airport", 
        "fields": {
            "IATA_code": "TEE", 
            "city": "Tebessa", 
            "timezone": 1.0, 
            "name": "Cheikh Larbi Tebessi", 
            "ICAO_code": "DABS", 
            "lat": 35.431611, 
            "country": "Algeria", 
            "alt": 2661, 
            "lon": 8.120717, 
            "DST": "N"
        }
    }, 
    {
        "pk": 224, 
        "model": "flights_app.Airport", 
        "fields": {
            "IATA_code": "HRM", 
            "city": "Tilrempt", 
            "timezone": 1.0, 
            "name": "Hassi R Mel", 
            "ICAO_code": "DAFH", 
            "lat": 32.930431, 
            "country": "Algeria", 
            "alt": 2540, 
            "lon": 3.311542, 
            "DST": "N"
        }
    }, 
    {
        "pk": 225, 
        "model": "flights_app.Airport", 
        "fields": {
            "IATA_code": "TID", 
            "city": "Tiaret", 
            "timezone": 1.0, 
            "name": "Bou Chekif", 
            "ICAO_code": "DAOB", 
            "lat": 35.341136, 
            "country": "Algeria", 
            "alt": 3245, 
            "lon": 1.463147, 
            "DST": "N"
        }
    }, 
    {
        "pk": 226, 
        "model": "flights_app.Airport", 
        "fields": {
            "IATA_code": "", 
            "city": "Bou Sfer", 
            "timezone": 1.0, 
            "name": "Bou Sfer", 
            "ICAO_code": "DAOE", 
            "lat": 35.735389, 
            "country": "Algeria", 
            "alt": 187, 
            "lon": -0.805389, 
            "DST": "N"
        }
    }, 
    {
        "pk": 227, 
        "model": "flights_app.Airport", 
        "fields": {
            "IATA_code": "TIN", 
            "city": "Tindouf", 
            "timezone": 1.0, 
            "name": "Tindouf", 
            "ICAO_code": "DAOF", 
            "lat": 27.700372, 
            "country": "Algeria", 
            "alt": 1453, 
            "lon": -8.167103, 
            "DST": "N"
        }
    }, 
    {
        "pk": 228, 
        "model": "flights_app.Airport", 
        "fields": {
            "IATA_code": "QAS", 
            "city": "Ech-cheliff", 
            "timezone": 1.0, 
            "name": "Ech Cheliff", 
            "ICAO_code": "DAOI", 
            "lat": 36.212658, 
            "country": "Algeria", 
            "alt": 463, 
            "lon": 1.331775, 
            "DST": "N"
        }
    }, 
    {
        "pk": 229, 
        "model": "flights_app.Airport", 
        "fields": {
            "IATA_code": "TAF", 
            "city": "Oran", 
            "timezone": 1.0, 
            "name": "Tafaraoui", 
            "ICAO_code": "DAOL", 
            "lat": 35.542444, 
            "country": "Algeria", 
            "alt": 367, 
            "lon": -0.532278, 
            "DST": "N"
        }
    }, 
    {
        "pk": 230, 
        "model": "flights_app.Airport", 
        "fields": {
            "IATA_code": "TLM", 
            "city": "Tlemcen", 
            "timezone": 1.0, 
            "name": "Zenata", 
            "ICAO_code": "DAON", 
            "lat": 35.016667, 
            "country": "Algeria", 
            "alt": 814, 
            "lon": -1.45, 
            "DST": "N"
        }
    }, 
    {
        "pk": 231, 
        "model": "flights_app.Airport", 
        "fields": {
            "IATA_code": "ORN", 
            "city": "Oran", 
            "timezone": 1.0, 
            "name": "Es Senia", 
            "ICAO_code": "DAOO", 
            "lat": 35.623858, 
            "country": "Algeria", 
            "alt": 295, 
            "lon": -0.621183, 
            "DST": "N"
        }
    }, 
    {
        "pk": 232, 
        "model": "flights_app.Airport", 
        "fields": {
            "IATA_code": "", 
            "city": "Sidi Bel Abbes", 
            "timezone": 1.0, 
            "name": "Sidi Bel Abbes", 
            "ICAO_code": "DAOS", 
            "lat": 35.171775, 
            "country": "Algeria", 
            "alt": 1614, 
            "lon": -0.593275, 
            "DST": "N"
        }
    }, 
    {
        "pk": 233, 
        "model": "flights_app.Airport", 
        "fields": {
            "IATA_code": "MUW", 
            "city": "Ghriss", 
            "timezone": 1.0, 
            "name": "Ghriss", 
            "ICAO_code": "DAOV", 
            "lat": 35.207725, 
            "country": "Algeria", 
            "alt": 1686, 
            "lon": 0.147142, 
            "DST": "N"
        }
    }, 
    {
        "pk": 234, 
        "model": "flights_app.Airport", 
        "fields": {
            "IATA_code": "AZR", 
            "city": "Adrar", 
            "timezone": 1.0, 
            "name": "Touat Cheikh Sidi Mohamed Belkebir", 
            "ICAO_code": "DAUA", 
            "lat": 27.837589, 
            "country": "Algeria", 
            "alt": 919, 
            "lon": -0.186414, 
            "DST": "N"
        }
    }, 
    {
        "pk": 235, 
        "model": "flights_app.Airport", 
        "fields": {
            "IATA_code": "BSK", 
            "city": "Biskra", 
            "timezone": 1.0, 
            "name": "Biskra", 
            "ICAO_code": "DAUB", 
            "lat": 34.793289, 
            "country": "Algeria", 
            "alt": 289, 
            "lon": 5.738231, 
            "DST": "N"
        }
    }, 
    {
        "pk": 236, 
        "model": "flights_app.Airport", 
        "fields": {
            "IATA_code": "ELG", 
            "city": "El Golea", 
            "timezone": 1.0, 
            "name": "El Golea", 
            "ICAO_code": "DAUE", 
            "lat": 30.571294, 
            "country": "Algeria", 
            "alt": 1306, 
            "lon": 2.859586, 
            "DST": "N"
        }
    }, 
    {
        "pk": 237, 
        "model": "flights_app.Airport", 
        "fields": {
            "IATA_code": "GHA", 
            "city": "Ghardaia", 
            "timezone": 1.0, 
            "name": "Noumerat", 
            "ICAO_code": "DAUG", 
            "lat": 32.384106, 
            "country": "Algeria", 
            "alt": 1512, 
            "lon": 3.794114, 
            "DST": "N"
        }
    }, 
    {
        "pk": 238, 
        "model": "flights_app.Airport", 
        "fields": {
            "IATA_code": "HME", 
            "city": "Hassi Messaoud", 
            "timezone": 1.0, 
            "name": "Oued Irara", 
            "ICAO_code": "DAUH", 
            "lat": 31.672972, 
            "country": "Algeria", 
            "alt": 463, 
            "lon": 6.140444, 
            "DST": "N"
        }
    }, 
    {
        "pk": 239, 
        "model": "flights_app.Airport", 
        "fields": {
            "IATA_code": "INZ", 
            "city": "In Salah", 
            "timezone": 1.0, 
            "name": "In Salah", 
            "ICAO_code": "DAUI", 
            "lat": 27.251022, 
            "country": "Algeria", 
            "alt": 896, 
            "lon": 2.512017, 
            "DST": "N"
        }
    }, 
    {
        "pk": 240, 
        "model": "flights_app.Airport", 
        "fields": {
            "IATA_code": "TGR", 
            "city": "Touggourt", 
            "timezone": 1.0, 
            "name": "Sidi Mahdi", 
            "ICAO_code": "DAUK", 
            "lat": 33.067803, 
            "country": "Algeria", 
            "alt": 279, 
            "lon": 6.088672, 
            "DST": "N"
        }
    }, 
    {
        "pk": 241, 
        "model": "flights_app.Airport", 
        "fields": {
            "IATA_code": "LOO", 
            "city": "Laghouat", 
            "timezone": 1.0, 
            "name": "Laghouat", 
            "ICAO_code": "DAUL", 
            "lat": 33.764383, 
            "country": "Algeria", 
            "alt": 2510, 
            "lon": 2.928344, 
            "DST": "N"
        }
    },